[
  {"id":1,"title":"Inwood Residence","location":"Seaman Ave, New York, NY","lat":40.868,"lng":-73.915,"beds":3,"baths":2,"sqft":1450,"lotSqft":0,"price":1120000,"listingType":"For Sale","propertyStatus":"Active","parkingSlots":1,"propertyType":"Apartment","amenities":{"appliancetype":["Dishwasher","Oven"],"indoorfeature":["Gym"],"outdooramenity":["Garden"],"communitytype":["Gated Community"]},"views":["City View"],"image":"/assets/images/v3.2/premium/1.png","builder":"Builder Properties"},
  {"id":2,"title":"Marble Hill Home","location":"W 225th St, Bronx, NY","lat":40.857,"lng":-73.903,"beds":2,"baths":1,"sqft":980,"lotSqft":500,"price":980000,"listingType":"For Sale","propertyStatus":"Active","parkingSlots":0,"propertyType":"Townhouse","amenities":{"appliancetype":["Microwave"],"indoorfeature":["Study Room"],"outdooramenity":["Deck"],"communitytype":[]},"views":["Park View"],"image":"/assets/images/v3.2/premium/2.png","builder":"HD Luxury"},
  {"id":3,"title":"Harlem Condo","location":"Lenox Ave, New York, NY","lat":40.834,"lng":-73.944,"beds":2,"baths":2,"sqft":1200,"lotSqft":0,"price":1399000,"listingType":"For Sale","propertyStatus":"Pending","parkingSlots":1,"propertyType":"Apartment","amenities":{"appliancetype":["Dishwasher","Refrigerator"],"indoorfeature":["Walk-in Closet"],"outdooramenity":["BBQ Area"],"communitytype":["Clubhouse"]},"views":["City View"],"image":"/assets/images/v3.2/premium/3.png","builder":"House Properties"},
  {"id":4,"title":"Morningside Heights","location":"Broadway, New York, NY","lat":40.82,"lng":-73.949,"beds":4,"baths":3,"sqft":1850,"lotSqft":0,"price":1650000,"listingType":"For Sale","propertyStatus":"Active","parkingSlots":2,"propertyType":"Duplex Homes","amenities":{"appliancetype":["Washer","Dryer"],"indoorfeature":["Fireplace"],"outdooramenity":["Deck"],"communitytype":[]},"views":["City View"],"image":"/assets/images/v3.2/premium/4.png","builder":"New York properties"},
  {"id":5,"title":"Upper West Side","location":"Riverside Dr, New York, NY","lat":40.803,"lng":-73.955,"beds":3,"baths":2,"sqft":1600,"lotSqft":0,"price":2050000,"listingType":"For Sale","propertyStatus":"Active","parkingSlots":1,"propertyType":"Apartment","amenities":{"appliancetype":["Dishwasher"],"indoorfeature":["Sauna"],"outdooramenity":["Garden"],"communitytype":[]},"views":["Park View"],"image":"/assets/images/v3.2/premium/5.png","builder":"Builder Properties"},
  {"id":6,"title":"Central Park West","location":"Central Park W, New York, NY","lat":40.785,"lng":-73.97,"beds":4,"baths":3,"sqft":2100,"lotSqft":0,"price":3200000,"listingType":"For Sale","propertyStatus":"Active","parkingSlots":1,"propertyType":"Apartment","amenities":{"appliancetype":["Wine Cooler"],"indoorfeature":["Home Theater"],"outdooramenity":["BBQ Area"],"communitytype":["Clubhouse"]},"views":["Park View"],"image":"/assets/images/v3.2/premium/6.png","builder":"HD Luxury"},
  {"id":7,"title":"Upper East Side","location":"Lexington Ave, New York, NY","lat":40.775,"lng":-73.95,"beds":3,"baths":2,"sqft":1500,"lotSqft":0,"price":2450000,"listingType":"For Sale","propertyStatus":"Pending","parkingSlots":0,"propertyType":"Apartment","amenities":{"appliancetype":["Dishwasher"],"indoorfeature":["Gym"],"outdooramenity":["Garden"],"communitytype":[]},"views":["City View"],"image":"/assets/images/v3.2/premium/7.png","builder":"House Properties"},
  {"id":8,"title":"Midtown West","location":"8th Ave, New York, NY","lat":40.764,"lng":-73.982,"beds":2,"baths":2,"sqft":1350,"lotSqft":0,"price":1850000,"listingType":"For Sale","propertyStatus":"Active","parkingSlots":1,"propertyType":"Apartment","amenities":{"appliancetype":["Oven"],"indoorfeature":["Study Room"],"outdooramenity":["BBQ Area"],"communitytype":[]},"views":["City View"],"image":"/assets/images/v3.2/premium/8.png","builder":"New York properties"},
  {"id":9,"title":"Times Sq Loft","location":"Broadway, New York, NY","lat":40.758,"lng":-73.985,"beds":1,"baths":1,"sqft":900,"lotSqft":0,"price":2100000,"listingType":"For Sale","propertyStatus":"Active","parkingSlots":0,"propertyType":"Apartment","amenities":{"appliancetype":["Microwave"],"indoorfeature":["Smart Home"],"outdooramenity":[],"communitytype":[]},"views":["City View"],"image":"/assets/images/v3.2/premium/1.png","builder":"Builder Properties"},
  {"id":10,"title":"Midtown Condo","location":"350 5th Ave, New York, NY","lat":40.748817,"lng":-73.985428,"beds":2,"baths":2,"sqft":1250,"lotSqft":0,"price":1850000,"listingType":"For Lease","propertyStatus":"Active","parkingSlots":1,"propertyType":"Apartment","amenities":{"appliancetype":["Refrigerator"],"indoorfeature":["Gym"],"outdooramenity":[],"communitytype":[]},"views":["City View"],"image":"/assets/images/v3.2/popular-cities/1.png","builder":"HD Luxury"},
  {"id":11,"title":"Chelsea Gallery Flat","location":"10th Ave, New York, NY","lat":40.741,"lng":-73.99,"beds":2,"baths":1,"sqft":1100,"lotSqft":0,"price":1720000,"listingType":"For Rent","propertyStatus":"Active","parkingSlots":1,"propertyType":"Apartment","amenities":{"appliancetype":["Dishwasher"],"indoorfeature":["Study Room"],"outdooramenity":["Garden"],"communitytype":[]},"views":["City View"],"image":"/assets/images/v3.2/popular-cities/2.png","builder":"House Properties"},
  {"id":12,"title":"Gramercy Park","location":"E 20th St, New York, NY","lat":40.73,"lng":-73.98,"beds":2,"baths":2,"sqft":1300,"lotSqft":0,"price":1490000,"listingType":"For Sale","propertyStatus":"Active","parkingSlots":1,"propertyType":"Apartment","amenities":{"appliancetype":["Dishwasher"],"indoorfeature":["Gym"],"outdooramenity":["Garden"],"communitytype":[]},"views":["Park View"],"image":"/assets/images/v3.2/popular-cities/3.png","builder":"New York properties"},
  {"id":13,"title":"East Village Loft","location":"E 9th St, New York, NY","lat":40.73061,"lng":-73.935242,"beds":1,"baths":1,"sqft":950,"lotSqft":0,"price":1399000,"listingType":"For Rent","propertyStatus":"Active","parkingSlots":0,"propertyType":"Apartment","amenities":{"appliancetype":["Microwave"],"indoorfeature":["Smart Home"],"outdooramenity":[],"communitytype":[]},"views":["City View"],"image":"/assets/images/v3.2/premium/1.png","builder":"Builder Properties"},
  {"id":14,"title":"SoHo Studio","location":"Spring St, New York, NY","lat":40.72,"lng":-74.0,"beds":1,"baths":1,"sqft":700,"lotSqft":0,"price":1190000,"listingType":"For Sale","propertyStatus":"Active","parkingSlots":0,"propertyType":"Apartment","amenities":{"appliancetype":["Microwave"],"indoorfeature":[],"outdooramenity":[],"communitytype":[]},"views":["City View"],"image":"/assets/images/v3.2/premium/2.png","builder":"HD Luxury"},
  {"id":15,"title":"FiDi Penthouse","location":"Wall St, New York, NY","lat":40.706086,"lng":-74.008584,"beds":4,"baths":3,"sqft":2400,"lotSqft":0,"price":2650000,"listingType":"For Sale","propertyStatus":"Active","parkingSlots":2,"propertyType":"Apartment","amenities":{"appliancetype":["Wine Cooler"],"indoorfeature":["Sauna","Home Theater"],"outdooramenity":["Deck"],"communitytype":[]},"views":["City View","Ocean View"],"image":"/assets/images/v3.2/premium/3.png","builder":"House Properties"},
  {"id":16,"title":"Battery Park","location":"Battery Pl, New York, NY","lat":40.702,"lng":-74.014,"beds":3,"baths":2,"sqft":1600,"lotSqft":0,"price":2320000,"listingType":"For Sale","propertyStatus":"Pending","parkingSlots":1,"propertyType":"Apartment","amenities":{"appliancetype":["Dishwasher"],"indoorfeature":["Gym"],"outdooramenity":["Garden"],"communitytype":[]},"views":["Park View"],"image":"/assets/images/v3.2/premium/4.png","builder":"New York properties"},
  {"id":17,"title":"DUMBO View","location":"Water St, Brooklyn, NY","lat":40.69,"lng":-73.98,"beds":3,"baths":2,"sqft":1500,"lotSqft":0,"price":1680000,"listingType":"For Sale","propertyStatus":"Active","parkingSlots":1,"propertyType":"Apartment","amenities":{"appliancetype":["Dishwasher"],"indoorfeature":["Gym"],"outdooramenity":["Garden"],"communitytype":[]},"views":["City View","Park View"],"image":"/assets/images/v3.2/premium/5.png","builder":"Builder Properties"},
  {"id":18,"title":"Brooklyn Brownstone","location":"Bedford Ave, Brooklyn, NY","lat":40.6782,"lng":-73.9442,"beds":5,"baths":3,"sqft":2200,"lotSqft":600,"price":1890000,"listingType":"For Sale","propertyStatus":"Active","parkingSlots":1,"propertyType":"Townhouse","amenities":{"appliancetype":["Dishwasher"],"indoorfeature":["Fireplace"],"outdooramenity":["Garden"],"communitytype":[]},"views":["City View"],"image":"/assets/images/v3.2/premium/6.png","builder":"HD Luxury"},
  {"id":19,"title":"Williamsburg Loft","location":"Bedford Ave, Brooklyn, NY","lat":40.71,"lng":-73.93,"beds":2,"baths":2,"sqft":1300,"lotSqft":0,"price":1420000,"listingType":"For Lease","propertyStatus":"Active","parkingSlots":0,"propertyType":"Apartment","amenities":{"appliancetype":["Dishwasher"],"indoorfeature":["Smart Home"],"outdooramenity":[],"communitytype":[]},"views":["City View"],"image":"/assets/images/v3.2/premium/7.png","builder":"House Properties"},
  {"id":20,"title":"Queens Family Home","location":"Main St, Queens, NY","lat":40.7282,"lng":-73.7949,"beds":4,"baths":3,"sqft":1800,"lotSqft":1000,"price":890000,"listingType":"For Sale","propertyStatus":"Active","parkingSlots":2,"propertyType":"Villas","amenities":{"appliancetype":["Washer","Dryer"],"indoorfeature":["Gym"],"outdooramenity":["Garden"],"communitytype":["Playground"]},"views":["Park View"],"image":"/assets/images/v3.2/premium/8.png","builder":"New York properties"},
  {"id":21,"title":"Jackson Heights","location":"37th Ave, Queens, NY","lat":40.75,"lng":-73.86,"beds":3,"baths":2,"sqft":1500,"lotSqft":300,"price":920000,"listingType":"For Rent","propertyStatus":"Active","parkingSlots":1,"propertyType":"Apartment","amenities":{"appliancetype":["Microwave"],"indoorfeature":["Study Room"],"outdooramenity":[],"communitytype":[]},"views":["City View"],"image":"/assets/images/v3.2/popular-cities/4.png","builder":"Builder Properties"},
  {"id":22,"title":"Bayside Ranch","location":"Bell Blvd, Queens, NY","lat":40.78,"lng":-73.78,"beds":5,"baths":4,"sqft":2600,"lotSqft":1500,"price":970000,"listingType":"For Sale","propertyStatus":"Active","parkingSlots":3,"propertyType":"Villas","amenities":{"appliancetype":["Dishwasher"],"indoorfeature":["Gym"],"outdooramenity":["BBQ Area"],"communitytype":["Gated Community"]},"views":["Lake View"],"image":"/assets/images/v3.2/popular-cities/1.png","builder":"HD Luxury"},
  {"id":23,"title":"Queens Condo","location":"Queens, NY","lat":40.78,"lng":-73.85,"beds":2,"baths":1,"sqft":1000,"lotSqft":0,"price":750000,"listingType":"For Sale","propertyStatus":"Sold","parkingSlots":1,"propertyType":"Apartment","amenities":{"appliancetype":["Refrigerator"],"indoorfeature":[],"outdooramenity":[],"communitytype":[]},"views":["City View"],"image":"/assets/images/v3.2/popular-cities/2.png","builder":"House Properties"},
  {"id":24,"title":"Soho Luxury Lease","location":"SoHo, New York, NY","lat":40.724,"lng":-74.002,"beds":3,"baths":2,"sqft":1750,"lotSqft":0,"price":15000,"listingType":"For Lease","propertyStatus":"Active","parkingSlots":1,"propertyType":"Apartment","amenities":{"appliancetype":["Dishwasher","Wine Cooler"],"indoorfeature":["Smart Home"],"outdooramenity":["Deck"],"communitytype":[]},"views":["City View"],"image":"/assets/images/v3.2/popular-cities/3.png","builder":"New York properties"},

  {"id":25,"title":"Hudson Yards View","location":"Hudson Blvd, New York, NY","lat":40.754,"lng":-74.002,"beds":2,"baths":2,"sqft":1200,"lotSqft":0,"price":1750000,"listingType":"For Sale","propertyStatus":"Active","parkingSlots":1,"propertyType":"Apartment","amenities":{"appliancetype":["Dishwasher"],"indoorfeature":["Gym"],"outdooramenity":["Deck"],"communitytype":[]},"views":["City View"],"image":"/assets/images/v3.2/premium/4.png","builder":"Builder Properties"},
  {"id":26,"title":"Chelsea Loft","location":"W 23rd St, New York, NY","lat":40.746,"lng":-73.996,"beds":1,"baths":1,"sqft":900,"lotSqft":0,"price":1320000,"listingType":"For Sale","propertyStatus":"Active","parkingSlots":0,"propertyType":"Apartment","amenities":{"appliancetype":["Microwave"],"indoorfeature":["Smart Home"],"outdooramenity":[],"communitytype":[]},"views":["City View"],"image":"/assets/images/v3.2/premium/5.png","builder":"HD Luxury"},
  {"id":27,"title":"Tribeca Townhome","location":"Greenwich St, New York, NY","lat":40.718,"lng":-74.009,"beds":4,"baths":3,"sqft":2400,"lotSqft":400,"price":3850000,"listingType":"For Sale","propertyStatus":"Active","parkingSlots":1,"propertyType":"Townhouse","amenities":{"appliancetype":["Dishwasher","Oven"],"indoorfeature":["Fireplace"],"outdooramenity":["Garden"],"communitytype":[]},"views":["City View"],"image":"/assets/images/v3.2/premium/6.png","builder":"House Properties"},
  {"id":28,"title":"Greenwich Village Flat","location":"Bleecker St, New York, NY","lat":40.731,"lng":-73.999,"beds":2,"baths":1,"sqft":1050,"lotSqft":0,"price":1450000,"listingType":"For Sale","propertyStatus":"Pending","parkingSlots":0,"propertyType":"Apartment","amenities":{"appliancetype":["Refrigerator"],"indoorfeature":[],"outdooramenity":[],"communitytype":[]},"views":["City View"],"image":"/assets/images/v3.2/popular-cities/1.png","builder":"New York properties"},
  {"id":29,"title":"NoHo Designer Loft","location":"Bond St, New York, NY","lat":40.726,"lng":-73.992,"beds":2,"baths":2,"sqft":1500,"lotSqft":0,"price":2350000,"listingType":"For Sale","propertyStatus":"Active","parkingSlots":0,"propertyType":"Apartment","amenities":{"appliancetype":["Dishwasher"],"indoorfeature":["Walk-in Closet"],"outdooramenity":[],"communitytype":[]},"views":["City View"],"image":"/assets/images/v3.2/popular-cities/2.png","builder":"Builder Properties"},
  {"id":30,"title":"Upper East Classic","location":"Madison Ave, New York, NY","lat":40.774,"lng":-73.965,"beds":3,"baths":2,"sqft":1700,"lotSqft":0,"price":2550000,"listingType":"For Sale","propertyStatus":"Active","parkingSlots":1,"propertyType":"Apartment","amenities":{"appliancetype":["Dishwasher"],"indoorfeature":["Study Room"],"outdooramenity":["Garden"],"communitytype":[]},"views":["City View"],"image":"/assets/images/v3.2/popular-cities/3.png","builder":"HD Luxury"},
  {"id":31,"title":"Brooklyn Heights Brownstone","location":"Montague St, Brooklyn, NY","lat":40.695,"lng":-73.996,"beds":5,"baths":4,"sqft":2800,"lotSqft":500,"price":2950000,"listingType":"For Sale","propertyStatus":"Active","parkingSlots":1,"propertyType":"Townhouse","amenities":{"appliancetype":["Dishwasher"],"indoorfeature":["Fireplace"],"outdooramenity":["Garden"],"communitytype":[]},"views":["City View"],"image":"/assets/images/v3.2/premium/7.png","builder":"House Properties"},
  {"id":32,"title":"Park Slope Family","location":"5th Ave, Brooklyn, NY","lat":40.669,"lng":-73.985,"beds":4,"baths":3,"sqft":2100,"lotSqft":300,"price":1650000,"listingType":"For Sale","propertyStatus":"Active","parkingSlots":1,"propertyType":"Duplex Homes","amenities":{"appliancetype":["Dishwasher"],"indoorfeature":["Gym"],"outdooramenity":["Garden"],"communitytype":[]},"views":["Park View"],"image":"/assets/images/v3.2/premium/8.png","builder":"New York properties"},
  {"id":33,"title":"Astoria Condo","location":"30th Ave, Queens, NY","lat":40.764,"lng":-73.923,"beds":2,"baths":2,"sqft":1150,"lotSqft":0,"price":780000,"listingType":"For Sale","propertyStatus":"Active","parkingSlots":1,"propertyType":"Apartment","amenities":{"appliancetype":["Dishwasher"],"indoorfeature":["Gym"],"outdooramenity":[],"communitytype":[]},"views":["City View"],"image":"/assets/images/v3.2/popular-cities/4.png","builder":"Builder Properties"},
  {"id":34,"title":"Long Island City View","location":"Center Blvd, Queens, NY","lat":40.745,"lng":-73.958,"beds":3,"baths":2,"sqft":1350,"lotSqft":0,"price":1150000,"listingType":"For Sale","propertyStatus":"Active","parkingSlots":1,"propertyType":"Apartment","amenities":{"appliancetype":["Dishwasher"],"indoorfeature":["Sauna"],"outdooramenity":[],"communitytype":[]},"views":["City View"],"image":"/assets/images/v3.2/premium/1.png","builder":"HD Luxury"},
  {"id":35,"title":"Forest Hills Ranch","location":"Queens Blvd, Queens, NY","lat":40.72,"lng":-73.844,"beds":4,"baths":3,"sqft":1900,"lotSqft":800,"price":980000,"listingType":"For Sale","propertyStatus":"Active","parkingSlots":2,"propertyType":"Villas","amenities":{"appliancetype":["Washer","Dryer"],"indoorfeature":["Gym"],"outdooramenity":["Garden"],"communitytype":[]},"views":["Park View"],"image":"/assets/images/v3.2/premium/2.png","builder":"House Properties"},
  {"id":36,"title":"Queens Waterfront","location":"Hunters Point, Queens, NY","lat":40.742,"lng":-73.958,"beds":2,"baths":2,"sqft":1200,"lotSqft":0,"price":1120000,"listingType":"For Sale","propertyStatus":"Active","parkingSlots":1,"propertyType":"Apartment","amenities":{"appliancetype":["Dishwasher"],"indoorfeature":["Gym"],"outdooramenity":["Deck"],"communitytype":[]},"views":["Lake View"],"image":"/assets/images/v3.2/premium/3.png","builder":"New York properties"},
  {"id":37,"title":"Harlem Brownstone","location":"Malcolm X Blvd, New York, NY","lat":40.807,"lng":-73.946,"beds":4,"baths":3,"sqft":2000,"lotSqft":300,"price":1850000,"listingType":"For Sale","propertyStatus":"Active","parkingSlots":1,"propertyType":"Townhouse","amenities":{"appliancetype":["Dishwasher"],"indoorfeature":["Fireplace"],"outdooramenity":[],"communitytype":[]},"views":["City View"],"image":"/assets/images/v3.2/premium/4.png","builder":"Builder Properties"},
  {"id":38,"title":"Upper West Classic","location":"Columbus Ave, New York, NY","lat":40.78,"lng":-73.976,"beds":3,"baths":2,"sqft":1650,"lotSqft":0,"price":2180000,"listingType":"For Sale","propertyStatus":"Active","parkingSlots":0,"propertyType":"Apartment","amenities":{"appliancetype":["Dishwasher"],"indoorfeature":[],"outdooramenity":["Garden"],"communitytype":[]},"views":["Park View"],"image":"/assets/images/v3.2/premium/5.png","builder":"HD Luxury"},
  {"id":39,"title":"Midtown Studio","location":"7th Ave, New York, NY","lat":40.756,"lng":-73.986,"beds":1,"baths":1,"sqft":650,"lotSqft":0,"price":890000,"listingType":"For Sale","propertyStatus":"Active","parkingSlots":0,"propertyType":"Apartment","amenities":{"appliancetype":["Microwave"],"indoorfeature":[],"outdooramenity":[],"communitytype":[]},"views":["City View"],"image":"/assets/images/v3.2/premium/6.png","builder":"House Properties"},
  {"id":40,"title":"Battery Park City","location":"North End Ave, New York, NY","lat":40.715,"lng":-74.016,"beds":2,"baths":2,"sqft":1200,"lotSqft":0,"price":1420000,"listingType":"For Sale","propertyStatus":"Active","parkingSlots":1,"propertyType":"Apartment","amenities":{"appliancetype":["Refrigerator"],"indoorfeature":["Gym"],"outdooramenity":[],"communitytype":[]},"views":["Lake View"],"image":"/assets/images/v3.2/premium/7.png","builder":"New York properties"},
  {"id":41,"title":"Williamsburg Studio","location":"Wythe Ave, Brooklyn, NY","lat":40.719,"lng":-73.958,"beds":1,"baths":1,"sqft":700,"lotSqft":0,"price":720000,"listingType":"For Sale","propertyStatus":"Active","parkingSlots":0,"propertyType":"Apartment","amenities":{"appliancetype":["Microwave"],"indoorfeature":[],"outdooramenity":[],"communitytype":[]},"views":["City View"],"image":"/assets/images/v3.2/premium/8.png","builder":"Builder Properties"},
  {"id":42,"title":"Brooklyn Family","location":"Bedford Ave, Brooklyn, NY","lat":40.703,"lng":-73.952,"beds":3,"baths":2,"sqft":1500,"lotSqft":200,"price":1280000,"listingType":"For Sale","propertyStatus":"Active","parkingSlots":1,"propertyType":"Duplex Homes","amenities":{"appliancetype":["Washer","Dryer"],"indoorfeature":["Gym"],"outdooramenity":["Garden"],"communitytype":[]},"views":["Park View"],"image":"/assets/images/v3.2/popular-cities/4.png","builder":"HD Luxury"},
  {"id":43,"title":"Queens Skyline","location":"Queens Plaza, Queens, NY","lat":40.748,"lng":-73.937,"beds":2,"baths":2,"sqft":1100,"lotSqft":0,"price":980000,"listingType":"For Sale","propertyStatus":"Active","parkingSlots":1,"propertyType":"Apartment","amenities":{"appliancetype":["Dishwasher"],"indoorfeature":[],"outdooramenity":["Deck"],"communitytype":[]},"views":["City View"],"image":"/assets/images/v3.2/popular-cities/1.png","builder":"House Properties"},
  {"id":44,"title":"Jamaica Estates","location":"Midland Pkwy, Queens, NY","lat":40.717,"lng":-73.772,"beds":5,"baths":4,"sqft":3000,"lotSqft":1800,"price":1320000,"listingType":"For Sale","propertyStatus":"Active","parkingSlots":2,"propertyType":"Villas","amenities":{"appliancetype":["Dishwasher"],"indoorfeature":["Sauna"],"outdooramenity":["Garden"],"communitytype":[]},"views":["Park View"],"image":"/assets/images/v3.2/popular-cities/2.png","builder":"New York properties"}
] 